{
  "type": "FeatureCollection",
  "features": [
    {"type":"Feature","properties":{"name":"Kilauea","country":"United States","type":"Shield","status":"Active","alert_level":"Warning","elevation":1222,"last_eruption":"2024"},"geometry":{"type":"Point","coordinates":[-155.287,19.421]}},
    {"type":"Feature","properties":{"name":"Mauna Loa","country":"United States","type":"Shield","status":"Active","alert_level":"Advisory","elevation":4169,"last_eruption":"2022"},"geometry":{"type":"Point","coordinates":[-155.608,19.475]}},
    {"type":"Feature","properties":{"name":"Mount Etna","country":"Italy","type":"Stratovolcano","status":"Active","alert_level":"Warning","elevation":3329,"last_eruption":"2024"},"geometry":{"type":"Point","coordinates":[15.001,37.748]}},
    {"type":"Feature","properties":{"name":"Stromboli","country":"Italy","type":"Stratovolcano","status":"Active","alert_level":"Watch","elevation":924,"last_eruption":"2024"},"geometry":{"type":"Point","coordinates":[15.213,38.789]}},
    {"type":"Feature","properties":{"name":"Sakurajima","country":"Japan","type":"Stratovolcano","status":"Active","alert_level":"Watch","elevation":1117,"last_eruption":"2024"},"geometry":{"type":"Point","coordinates":[130.657,31.585]}},
    {"type":"Feature","properties":{"name":"Sinabung","country":"Indonesia","type":"Stratovolcano","status":"Active","alert_level":"Watch","elevation":2460,"last_eruption":"2023"},"geometry":{"type":"Point","coordinates":[98.392,3.17]}},
    {"type":"Feature","properties":{"name":"Merapi","country":"Indonesia","type":"Stratovolcano","status":"Active","alert_level":"Watch","elevation":2930,"last_eruption":"2024"},"geometry":{"type":"Point","coordinates":[110.446,-7.541]}},
    {"type":"Feature","properties":{"name":"Semeru","country":"Indonesia","type":"Stratovolcano","status":"Active","alert_level":"Warning","elevation":3676,"last_eruption":"2024"},"geometry":{"type":"Point","coordinates":[112.92,-8.108]}},
    {"type":"Feature","properties":{"name":"Pinatubo","country":"Philippines","type":"Stratovolcano","status":"Active","alert_level":"Advisory","elevation":1486,"last_eruption":"1991"},"geometry":{"type":"Point","coordinates":[120.35,15.13]}},
    {"type":"Feature","properties":{"name":"Mayon","country":"Philippines","type":"Stratovolcano","status":"Active","alert_level":"Watch","elevation":2463,"last_eruption":"2023"},"geometry":{"type":"Point","coordinates":[123.685,13.257]}},
    {"type":"Feature","properties":{"name":"Taal","country":"Philippines","type":"Caldera","status":"Active","alert_level":"Advisory","elevation":311,"last_eruption":"2022"},"geometry":{"type":"Point","coordinates":[121.002,14.002]}},
    {"type":"Feature","properties":{"name":"Popocatépetl","country":"Mexico","type":"Stratovolcano","status":"Active","alert_level":"Warning","elevation":5426,"last_eruption":"2024"},"geometry":{"type":"Point","coordinates":[-98.622,19.023]}},
    {"type":"Feature","properties":{"name":"Soufrière Hills","country":"Montserrat","type":"Stratovolcano","status":"Active","alert_level":"Watch","elevation":1050,"last_eruption":"2010"},"geometry":{"type":"Point","coordinates":[-62.177,16.72]}},
    {"type":"Feature","properties":{"name":"La Palma (Cumbre Vieja)","country":"Spain","type":"Stratovolcano","status":"Active","alert_level":"Advisory","elevation":1949,"last_eruption":"2021"},"geometry":{"type":"Point","coordinates":[-17.84,28.57]}},
    {"type":"Feature","properties":{"name":"Nyiragongo","country":"DRC","type":"Stratovolcano","status":"Active","alert_level":"Warning","elevation":3470,"last_eruption":"2021"},"geometry":{"type":"Point","coordinates":[29.25,1.52]}},
    {"type":"Feature","properties":{"name":"Ol Doinyo Lengai","country":"Tanzania","type":"Stratovolcano","status":"Active","alert_level":"Advisory","elevation":2962,"last_eruption":"2023"},"geometry":{"type":"Point","coordinates":[35.902,-2.764]}},
    {"type":"Feature","properties":{"name":"Erebus","country":"Antarctica","type":"Stratovolcano","status":"Active","alert_level":"Normal","elevation":3794,"last_eruption":"2024"},"geometry":{"type":"Point","coordinates":[167.167,-77.53]}},
    {"type":"Feature","properties":{"name":"Fuego","country":"Guatemala","type":"Stratovolcano","status":"Active","alert_level":"Warning","elevation":3763,"last_eruption":"2024"},"geometry":{"type":"Point","coordinates":[-90.88,14.473]}},
    {"type":"Feature","properties":{"name":"Santiaguito","country":"Guatemala","type":"Stratovolcano","status":"Active","alert_level":"Watch","elevation":3772,"last_eruption":"2024"},"geometry":{"type":"Point","coordinates":[-91.552,14.757]}},
    {"type":"Feature","properties":{"name":"Tungurahua","country":"Ecuador","type":"Stratovolcano","status":"Active","alert_level":"Watch","elevation":5023,"last_eruption":"2016"},"geometry":{"type":"Point","coordinates":[-78.447,-1.467]}},
    {"type":"Feature","properties":{"name":"Cotopaxi","country":"Ecuador","type":"Stratovolcano","status":"Active","alert_level":"Advisory","elevation":5897,"last_eruption":"2023"},"geometry":{"type":"Point","coordinates":[-78.436,-0.677]}},
    {"type":"Feature","properties":{"name":"Sheveluch","country":"Russia","type":"Stratovolcano","status":"Active","alert_level":"Watch","elevation":3283,"last_eruption":"2024"},"geometry":{"type":"Point","coordinates":[161.36,56.653]}},
    {"type":"Feature","properties":{"name":"Klyuchevskoy","country":"Russia","type":"Stratovolcano","status":"Active","alert_level":"Watch","elevation":4754,"last_eruption":"2024"},"geometry":{"type":"Point","coordinates":[160.638,56.057]}},
    {"type":"Feature","properties":{"name":"Ruapehu","country":"New Zealand","type":"Stratovolcano","status":"Active","alert_level":"Advisory","elevation":2797,"last_eruption":"2007"},"geometry":{"type":"Point","coordinates":[175.564,-39.281]}},
    {"type":"Feature","properties":{"name":"White Island (Whakaari)","country":"New Zealand","type":"Stratovolcano","status":"Active","alert_level":"Watch","elevation":321,"last_eruption":"2019"},"geometry":{"type":"Point","coordinates":[177.183,-37.521]}},
    {"type":"Feature","properties":{"name":"Vanuatu (Yasur)","country":"Vanuatu","type":"Stratovolcano","status":"Active","alert_level":"Watch","elevation":361,"last_eruption":"2024"},"geometry":{"type":"Point","coordinates":[169.443,-19.53]}},
    {"type":"Feature","properties":{"name":"Ambrym","country":"Vanuatu","type":"Caldera","status":"Active","alert_level":"Advisory","elevation":1334,"last_eruption":"2018"},"geometry":{"type":"Point","coordinates":[168.12,-16.25]}},
    {"type":"Feature","properties":{"name":"Aira (Sakurajima)","country":"Japan","type":"Caldera","status":"Active","alert_level":"Watch","elevation":1117,"last_eruption":"2024"},"geometry":{"type":"Point","coordinates":[130.659,31.593]}},
    {"type":"Feature","properties":{"name":"Aso","country":"Japan","type":"Caldera","status":"Active","alert_level":"Advisory","elevation":1592,"last_eruption":"2021"},"geometry":{"type":"Point","coordinates":[131.104,32.885]}},
    {"type":"Feature","properties":{"name":"Colima","country":"Mexico","type":"Stratovolcano","status":"Active","alert_level":"Watch","elevation":3850,"last_eruption":"2022"},"geometry":{"type":"Point","coordinates":[-103.62,19.514]}},
    {"type":"Feature","properties":{"name":"Krakatau","country":"Indonesia","type":"Caldera","status":"Active","alert_level":"Watch","elevation":813,"last_eruption":"2020"},"geometry":{"type":"Point","coordinates":[105.423,-6.102]}},
    {"type":"Feature","properties":{"name":"Agung","country":"Indonesia","type":"Stratovolcano","status":"Active","alert_level":"Advisory","elevation":3031,"last_eruption":"2019"},"geometry":{"type":"Point","coordinates":[115.508,-8.343]}},
    {"type":"Feature","properties":{"name":"Rinjani","country":"Indonesia","type":"Stratovolcano","status":"Active","alert_level":"Normal","elevation":3726,"last_eruption":"2016"},"geometry":{"type":"Point","coordinates":[116.47,-8.42]}},
    {"type":"Feature","properties":{"name":"Vesuvius","country":"Italy","type":"Stratovolcano","status":"Dormant","alert_level":"Normal","elevation":1281,"last_eruption":"1944"},"geometry":{"type":"Point","coordinates":[14.426,40.821]}},
    {"type":"Feature","properties":{"name":"Santorini","country":"Greece","type":"Caldera","status":"Active","alert_level":"Advisory","elevation":575,"last_eruption":"1950"},"geometry":{"type":"Point","coordinates":[25.396,36.404]}},
    {"type":"Feature","properties":{"name":"Mount St. Helens","country":"United States","type":"Stratovolcano","status":"Active","alert_level":"Normal","elevation":2549,"last_eruption":"2008"},"geometry":{"type":"Point","coordinates":[-122.195,46.2]}},
    {"type":"Feature","properties":{"name":"Mount Rainier","country":"United States","type":"Stratovolcano","status":"Active","alert_level":"Normal","elevation":4392,"last_eruption":"1854"},"geometry":{"type":"Point","coordinates":[-121.735,46.853]}},
    {"type":"Feature","properties":{"name":"Wrangell","country":"United States","type":"Shield","status":"Active","alert_level":"Normal","elevation":4317,"last_eruption":"1997"},"geometry":{"type":"Point","coordinates":[-144.018,62.006]}},
    {"type":"Feature","properties":{"name":"Cleveland","country":"United States","type":"Stratovolcano","status":"Active","alert_level":"Watch","elevation":1730,"last_eruption":"2023"},"geometry":{"type":"Point","coordinates":[-169.945,52.825]}},
    {"type":"Feature","properties":{"name":"Great Sitkin","country":"United States","type":"Stratovolcano","status":"Active","alert_level":"Watch","elevation":1740,"last_eruption":"2024"},"geometry":{"type":"Point","coordinates":[-176.13,52.077]}},
    {"type":"Feature","properties":{"name":"Pacaya","country":"Guatemala","type":"Stratovolcano","status":"Active","alert_level":"Watch","elevation":2552,"last_eruption":"2024"},"geometry":{"type":"Point","coordinates":[-90.601,14.382]}},
    {"type":"Feature","properties":{"name":"Turrialba","country":"Costa Rica","type":"Stratovolcano","status":"Active","alert_level":"Advisory","elevation":3340,"last_eruption":"2021"},"geometry":{"type":"Point","coordinates":[-83.767,10.025]}},
    {"type":"Feature","properties":{"name":"Arenal","country":"Costa Rica","type":"Stratovolcano","status":"Active","alert_level":"Normal","elevation":1670,"last_eruption":"2010"},"geometry":{"type":"Point","coordinates":[-84.703,10.463]}},
    {"type":"Feature","properties":{"name":"Sabancaya","country":"Peru","type":"Stratovolcano","status":"Active","alert_level":"Watch","elevation":5967,"last_eruption":"2024"},"geometry":{"type":"Point","coordinates":[-71.857,-15.787]}},
    {"type":"Feature","properties":{"name":"Ubinas","country":"Peru","type":"Stratovolcano","status":"Active","alert_level":"Watch","elevation":5672,"last_eruption":"2024"},"geometry":{"type":"Point","coordinates":[-70.903,-16.355]}},
    {"type":"Feature","properties":{"name":"Villarrica","country":"Chile","type":"Stratovolcano","status":"Active","alert_level":"Watch","elevation":2847,"last_eruption":"2015"},"geometry":{"type":"Point","coordinates":[-71.93,-39.42]}},
    {"type":"Feature","properties":{"name":"Calbuco","country":"Chile","type":"Stratovolcano","status":"Active","alert_level":"Advisory","elevation":2003,"last_eruption":"2015"},"geometry":{"type":"Point","coordinates":[-72.614,-41.326]}},
    {"type":"Feature","properties":{"name":"Reventador","country":"Ecuador","type":"Stratovolcano","status":"Active","alert_level":"Watch","elevation":3562,"last_eruption":"2024"},"geometry":{"type":"Point","coordinates":[-77.656,-0.077]}},
    {"type":"Feature","properties":{"name":"Lopevi","country":"Vanuatu","type":"Stratovolcano","status":"Active","alert_level":"Advisory","elevation":1413,"last_eruption":"2007"},"geometry":{"type":"Point","coordinates":[168.346,-16.507]}},
    {"type":"Feature","properties":{"name":"Tinakula","country":"Solomon Islands","type":"Stratovolcano","status":"Active","alert_level":"Advisory","elevation":851,"last_eruption":"2017"},"geometry":{"type":"Point","coordinates":[165.798,-10.386]}}
  ]
}
